last_update,timestamp,country,abbreviation_canton,name_canton,number_canton,lat,long,tests_performed,total_currently_positive_cases,total_positive_cases,new_hosp,total_hospitalized,total_currently_positive_per_100k,deaths_per_100k,released,ncumul_ICU_intub,deaths,intensive_care,ncumul_vent,ncumul_confirmed_non_resident,current_hosp_non_resident,TotalPosTests1,ninst_ICU_intub,ncumul_ICF,ncumul_deceased_suspect,new_positive_cases,new_deaths,doubling_time_total_positive,doubling_time_fatalities,source
2020-04-23 04:03:23,2020-04-22 12:45:00,CH,AG,Aargau,01,47.40966,8.15688,,1026,1026,-6,37,152.91,4.62,710,0,31,15,15,,,,,,,9,2,52.12437,13.541555,https://www.ag.ch/media/kanton_aargau/themen_1/coronavirus_1/lagebulletins/200422_KFS_Coronavirus_Lagebulletin_38.pdf
2020-04-23 04:03:23,2020-04-22 09:00:00,CH,AI,Appenzell Innerrhoden,16,47.317264,9.416754,,24,24,0,1,149.07,,,0,,,,,,,,,,0,,,0.0,https://www.ai.ch/themen/gesundheit-alter-und-soziales/gesundheitsfoerderung-und-praevention/uebertragbare-krankheiten/coronavirus
2020-04-23 04:03:23,2020-04-22 16:00:00,CH,AR,Appenzell Ausserrhoden,15,47.416351999999996,9.36791,,87,87,0,6,157.61,5.435,,0,3,,,,,,,,,1,0,35.929155,,https://www.ar.ch/verwaltung/departement-gesundheit-und-soziales/amt-fuer-gesundheit/informationsseite-coronavirus/
2020-04-23 04:03:23,2020-04-22 06:00:00,CH,BE,Bern/Berne,02,46.823608,7.636667,,1643,1643,1,67,159.34,7.468,,0,77,14,10,,,,,,,21,0,61.519797,24.913134,https://www.besondere-lage.sites.be.ch/besondere-lage_sites/de/index/corona/index.html
2020-04-23 04:03:23,2020-04-22 01:00:00,CH,BL,Basel-Landschaft,13,47.45176,7.702414,,811,811,0,33,282.58,9.059,683,0,26,3,3,,,,,,,2,0,163.597003,88.364938,https://www.baselland.ch/politik-und-behorden/direktionen/volkswirtschafts-und-gesundheitsdirektion/amt-fur-gesundheit/medizinische-dienste/kantonsarztlicher-dienst/aktuelles/covid-19-faelle-kanton-basel-landschaft
2020-04-23 04:03:23,2020-04-22 07:45:00,CH,BS,Basel-Stadt,12,47.564869,7.615259,235,933,933,-5,49,481.18,23.208,786,0,45,7,,511.0,16.0,,,,,0,1,321.61718,17.705399,https://www.gd.bs.ch//nm/2020-tagesbulletin-coronavirus-933-bestaetigte-faelle-im-kanton-basel-stadt-gd-3.html
2020-04-23 04:03:23,2020-04-22 01:00:00,CH,FL,Fürstentum Lichtenstein,00,47.166667,9.509722,900,81,81,,,209.84,2.591,1,0,1,,,,,,,,,0,0,,,https://www.regierung.li/de/mitteilungen/223419/?typ=news
2020-04-23 04:03:23,2020-04-22 01:00:00,CH,FR,Fribourg,10,46.718391,7.074008,30,1006,1006,-3,57,319.26,24.119,116,0,76,5,,,,,,,,11,2,44.119846,27.496954,https://www.fr.ch/covid19/sante/covid-19/coronavirus-statistiques-evolution-de-la-situation-dans-le-canton
2020-04-23 04:03:23,2020-04-22 10:00:00,CH,GE,Genève,25,46.220528,6.132935,22735,4710,4710,-16,288,951.13,41.397,589,0,205,30,27,,,,,18.0,,0,0,153.723631,77.195928,https://www.ge.ch/document/covid-19-situation-epidemiologique-geneve/telecharger
2020-04-23 04:03:23,2020-04-22 11:30:00,CH,GL,Glarus,08,46.931042000000005,9.065751,,117,117,0,3,290.32,14.888,,0,6,,,,,,,,,2,0,32.02681,3.154649,https://www.gl.ch/verwaltung/finanzen-und-gesundheit/gesundheit/coronavirus.html/4817#Fallzahlen
2020-04-23 04:03:23,2020-04-21 01:00:00,CH,GR,Graubünden/Grigioni,01,46.656248,9.628198,,782,782,-2,27,395.15,21.223,,0,42,,,,,,,,,4,2,62.779891,27.342716,https://www.gr.ch/DE/institutionen/verwaltung/djsg/ga/coronavirus/info/Seiten/Start.aspx
2020-04-23 04:03:23,2020-04-22 14:00:00,CH,JU,Jura,26,47.350744,7.156107,,196,196,0,12,267.39,8.186,,0,6,4,,,,,,,,1,0,134.116516,5.0,https://www.jura.ch/fr/Autorites/Coronavirus/Chiffres-H-JU/Evolution-des-cas-COVID-19-dans-le-Jura.html
2020-04-23 04:03:23,2020-04-22 09:00:00,CH,LU,Luzern,03,47.067763,8.1102,,648,648,0,35,159.41,3.69,,0,15,5,,,,,,,,5,0,53.023789,50.233246,https://gesundheit.lu.ch/themen/Humanmedizin/Infektionskrankheiten/Coronavirus
2020-04-23 04:03:23,2020-04-22 14:00:00,CH,NE,Neuchâtel,24,46.995534,6.780126,,652,652,0,37,366.29,31.461,,0,56,6,4,,,,,,,0,0,148.904397,192.343139,https://www.ne.ch/autorites/DFS/SCSP/medecin-cantonal/maladies-vaccinations/Documents/Covid-19-Statistiques/COVID19_PublicationInternet.xlsx
2020-04-23 04:03:23,2020-04-21 01:00:00,CH,NW,Nidwalden,07,46.926755,8.405302,,108,108,0,4,251.16,6.977,,0,3,1,,,,,,,,0,0,185.411472,8.547556,http://www.nw.ch/coronastatistik
2020-04-23 04:03:23,2020-04-22 14:00:00,CH,OW,Obwalden,06,46.804527,8.144317000000001,6,67,67,0,0,178.19,0.0,1,0,0,,,,,,,,,0,0,75.655337,0.0,https://www.ow.ch/de/verwaltung/dienstleistungen/?dienst_id=5962
2020-04-23 04:03:23,2020-04-22 01:00:00,CH,SG,St. Gallen,17,47.1832,9.274744,,724,724,4,52,143.45,5.746,162,0,29,6,,,,,,,,6,0,59.450121,48.499666,https://www.sg.ch/tools/informationen-coronavirus.html
2020-04-23 04:03:23,2020-04-22 07:30:00,CH,SH,Schaffhausen,14,47.71357,8.59167,,63,63,0,10,77.4,3.686,,0,3,2,,,,,,,,0,1,71.033495,3.154649,https://sh.ch/CMS/Webseite/Kanton-Schaffhausen/Beh-rde/Verwaltung/Departement-des-Innern/Gesundheitsamt-3209198-DE.html
2020-04-23 04:03:23,2020-04-22 01:00:00,CH,SO,Solothurn,11,47.304135,7.639388,,368,368,-1,18,135.59,4.053,,0,11,,,,,,,,,9,0,69.107694,17.270762,https://corona.so.ch/
2020-04-23 04:03:23,2020-04-22 06:23:00,CH,SZ,Schwyz,05,47.061787,8.756585,10,282,282,0,1,179.28,10.172,194,0,16,,,,,,,,,6,0,59.333859,25.954465,https://www.sz.ch/public/upload/assets/46199/COVID-19_Fallzahlen_Kanton_Schwyz.xlsx
2020-04-23 04:03:23,2020-04-22 01:00:00,CH,TG,Thurgau,01,47.568715,9.091957,276,340,340,-1,23,124.18,5.113,,0,14,9,,,,,,,,1,1,60.268957,22.482781,https://www.tg.ch/news/fachdossier-coronavirus.html/10552
2020-04-23 04:03:23,2020-04-22 06:00:00,CH,TI,Ticino,21,46.295617,8.808924,,3089,3089,-23,213,873.34,83.404,661,0,295,42,32,,,,,,,24,4,93.8427,39.137244,https://www4.ti.ch/area-media/comunicati/dettaglio-comunicato/?NEWS_ID=187672&cHash=73c20eed4b20c3cb714758f2678c3f15
2020-04-23 04:03:23,2020-04-22 13:00:00,CH,UR,Uri,04,46.771849,8.628586,85,78,78,1,3,214.88,13.774,69,0,5,,,,,,,,,0,0,,,https://www.ur.ch/themen/2962
2020-04-23 04:03:23,2020-04-21 01:00:00,CH,VD,Vaud,22,46.570091,6.557809000000001,,5037,5037,-11,210,635.1,39.844,225,0,316,48,,,,,,,,50,6,88.706168,27.830434,https://www.vd.ch/toutes-les-actualites/hotline-et-informations-sur-le-coronavirus/point-de-situation-statistique-dans-le-canton-de-vaud/
2020-04-23 04:03:23,2020-04-22 13:00:00,CH,VS,Valais/Wallis,23,46.209567,7.604659,,1792,1792,0,76,524.74,33.382,210,0,114,15,11,,,,,,,1,1,175.707114,24.565993,https://www.vs.ch/documents/6756452/7008787/2020%2004%2022%20Sit%20Epid%20-%20%C3%89tat%20Stand
2020-04-23 04:03:23,2020-04-22 06:00:00,CH,ZG,Zug,09,47.157296,8.537294,,176,176,0,11,140.35,6.38,131,0,8,5,,,,,,,,0,0,150.752872,12.047104,https://www.zg.ch/behoerden/gesundheitsdirektion/amt-fuer-gesundheit/corona
2020-04-23 04:03:23,2020-04-22 12:30:00,CH,ZH,Zürich,01,47.41275,8.65508,,3320,3320,0,110,220.7,7.179,,0,108,44,44,,,,,,,40,0,75.47698,35.669022,https://gd.zh.ch/internet/gesundheitsdirektion/de/themen/coronavirus.html
