last_update,timestamp,country,abbreviation_canton,name_canton,number_canton,lat,long,tests_performed,total_currently_positive_cases,total_positive_cases,new_hosp,total_hospitalized,total_currently_positive_per_100k,deaths_per_100k,released,ncumul_ICU_intub,deaths,intensive_care,ncumul_vent,current_isolated,current_quarantined,current_quarantined_riskareatravel,current_quarantined_total,ncumul_ICF,TotalPosTests1,ninst_ICU_intub,ncumul_confirmed_non_resident,current_hosp_non_resident,diff_tested,current_hosp_resident,new_positive_cases,new_deaths,doubling_time_total_positive,doubling_time_fatalities,source
2020-08-25 10:05:35,2020-08-23 01:00:00,CH,AG,Aargau,01,47.40966,8.15688,,1947,1947,0,2,290.16,7.601,1170,0,51,1,1,142.0,548.0,,,,,,,,,,15,0,68.541986,,https://www.ag.ch/de/themen_1/coronavirus_2/coronavirus.jsp
2020-08-25 10:05:35,2020-08-24 10:00:00,CH,AI,Appenzell Innerrhoden,16,47.317264,9.416754,,25,25,0,1,155.28,0.0,,0,0,,,0.0,3.0,10.0,13.0,,,,,,,,0,0,,0.0,https://www.ai.ch/themen/gesundheit-alter-und-soziales/gesundheitsfoerderung-und-praevention/uebertragbare-krankheiten/coronavirus
2020-08-25 10:05:35,2020-08-24 12:20:00,CH,AR,Appenzell Ausserrhoden,15,47.416351999999996,9.36791,,130,130,-2,0,235.51,5.435,,0,3,0,,11.0,61.0,30.0,91.0,,,,,,,,3,0,35.784637,,https://www.ar.ch/verwaltung/departement-gesundheit-und-soziales/amt-fuer-gesundheit/informationsseite-coronavirus/
2020-08-25 10:05:35,2020-08-24 06:00:00,CH,BE,Bern/Berne,02,46.823608,7.636667,,2409,2409,-1,4,233.63,9.601,,0,99,1,1,,,,,,,,,,,,12,0,121.037653,341.372054,https://www.besondere-lage.sites.be.ch/besondere-lage_sites/de/index/corona/index.html
2020-08-25 10:05:35,2020-08-24 01:00:00,CH,BL,Basel-Landschaft,13,47.45176,7.702414,,1009,1009,0,1,351.57,12.195,924,0,35,1,1,55.0,183.0,275.0,458.0,,,,,,,,1,0,132.756805,,https://www.baselland.ch/politik-und-behorden/direktionen/volkswirtschafts-und-gesundheitsdirektion/amt-fur-gesundheit/medizinische-dienste/kantonsarztlicher-dienst/aktuelles/covid-19-faelle-kanton-basel-landschaft
2020-08-25 10:05:35,2020-08-25 06:20:00,CH,BS,Basel-Stadt,12,47.564869,7.615259,235,1185,1185,0,7,611.14,27.334,1077,0,53,0,,55.0,68.0,331.0,399.0,,,,527.0,1.0,,6.0,0,0,203.607068,,https://www.gesundheit.bs.ch
2020-08-25 10:05:35,2020-08-24 01:00:00,CH,FL,Fürstentum Lichtenstein,00,47.166667,9.509722,900,100,100,0,1,259.07,2.591,90,0,1,,,,,,,,,,,,,,1,0,171.548092,,https://www.llv.li/files/ag/aktuelle-fallzahlen.pdf
2020-08-25 10:05:35,2020-08-24 01:00:00,CH,FR,Fribourg,10,46.718391,7.074008,30,1561,1561,0,3,495.4,26.976,160,0,85,1,,,,,,,,,,,,,11,0,47.427973,,https://www.fr.ch/sites/default/files/2020-08/200824_statistiques_situation_COVID_site.xlsx
2020-08-25 10:05:35,2020-08-23 01:00:00,CH,GE,Genève,25,46.220528,6.132935,63642,6728,6728,0,16,1358.64,59.976,968,0,297,0,1,234.0,692.0,2721.0,,0.0,,,,,,,22,0,156.883005,,https://www.ge.ch/document/21502/telecharger
2020-08-25 10:05:35,2020-08-25 09:30:00,CH,GL,Glarus,08,46.931042000000005,9.065751,,162,162,0,0,401.99,32.258,,0,13,,,,,,,,,,,,,,1,0,60.633871,,https://www.gl.ch/public/upload/assets/30317/COVID-19_Fallzahlen_Kanton_Glarus.xlsx
2020-08-25 10:05:35,2020-08-24 01:00:00,CH,GR,Graubünden/Grigioni,01,46.656248,9.628198,,982,982,0,1,496.21,25.265,,0,50,0,0,25.0,176.0,,,,,,,,,,3,0,187.336937,,https://services1.arcgis.com/YAuo6vcW85VPu7OE/arcgis/rest/services/Fallzahlen_Total_Kanton/FeatureServer/0/query?where=1%3D1&objectIds=&time=&resultType=none&outFields=*&returnHiddenFields=false&returnIdsOnly=false&returnUniqueIdsOnly=false&returnCountOnly=false&returnDistinctValues=false&cacheHint=false&orderByFields=Eingangs_Datum&groupByFieldsForStatistics=&outStatistics=&having=&resultOffset=&resultRecordCount=&sqlFormat=standard&f=pjson
2020-08-25 10:05:35,2020-08-24 01:00:00,CH,JU,Jura,26,47.350744,7.156107,,266,266,0,1,362.89,9.55,,0,7,0,,,,,,,,,,,,,1,0,305.559106,,https://www.jura.ch/Htdocs/Files/v/35090.xlsx/Departements/CHA/SIC/Carrousel/Coronavirus/Cornavirus/Chiffres/donnees_internet_24_08.xlsx?download=1
2020-08-25 10:05:35,2020-08-25 01:00:00,CH,LU,Luzern,03,47.067763,8.1102,,1017,1017,1,9,250.18,5.166,,0,21,3,,31.0,117.0,,,,,,,,,,4,0,111.956689,,https://gesundheit.lu.ch/themen/Humanmedizin/Infektionskrankheiten/Coronavirus
2020-08-25 10:05:35,2020-08-24 01:00:00,CH,NE,Neuchâtel,24,46.995534,6.780126,,846,846,0,0,475.28,47.191,,0,84,0,0,,,,,,,,,,,,0,0,207.691782,,https://www.ne.ch/autorites/DFS/SCSP/medecin-cantonal/maladies-vaccinations/Documents/Covid-19-Statistiques/COVID19_PublicationInternet.xlsx
2020-08-25 10:05:35,2020-08-24 01:00:00,CH,NW,Nidwalden,07,46.926755,8.405302,,131,131,0,0,304.65,6.977,,0,3,0,,,,,,,,,,,,,0,0,,,http://www.nw.ch/coronastatistik
2020-08-25 10:05:35,2020-08-24 01:00:00,CH,OW,Obwalden,06,46.804527,8.144317000000001,6,101,101,0,1,268.62,0.0,1,0,0,,,,,,,,,,,,,,0,0,56.589333,0.0,https://www.ow.ch/dl.php/de/5f43bb160020c/OW-1103775-v1-Statistik_OW_Covid-19.XLSX
2020-08-25 10:05:35,2020-08-24 01:00:00,CH,SG,St. Gallen,17,47.1832,9.274744,,1218,1218,2,9,241.33,8.124,226,0,41,1,4,,,,,,,,,,,,1,0,84.403566,,https://www.sg.ch/tools/informationen-coronavirus.html
2020-08-25 10:05:35,2020-08-25 07:30:00,CH,SH,Schaffhausen,14,47.71357,8.59167,,162,162,3,5,199.02,9.828,,0,8,0,,,,,,,,,,,,,1,0,138.622216,,https://sh.ch/CMS/get/file/ba68575e-9cae-4c83-92b5-0b40b46af7b0
2020-08-25 10:05:35,2020-08-23 23:00:00,CH,SO,Solothurn,11,47.304135,7.639388,,651,651,1,3,239.87,6.632,,0,18,,,,,,,,,,,,,,8,0,57.623291,,https://corona.so.ch/index.php?id=27979
2020-08-25 10:05:35,2020-08-24 07:00:00,CH,SZ,Schwyz,05,47.061787,8.756585,10,464,464,0,1,294.98,15.893,409,0,25,,,,,,,,,,,,,,4,0,121.959037,,https://www.sz.ch/public/upload/assets/48241/COVID-19_Fallzahlen_Kanton_Schwyz.xlsx
2020-08-25 10:05:35,2020-08-25 08:00:00,CH,TG,Thurgau,01,47.568715,9.091957,276,560,560,0,3,204.53,6.939,79,0,19,1,,,,,,,,,,,,,2,0,174.698867,,https://www.tg.ch/news/fachstab-gesundheit-coronavirus.html/10552
2020-08-25 10:05:35,2020-08-25 06:00:00,CH,TI,Ticino,21,46.295617,8.808924,,3519,3519,0,1,994.91,98.954,926,0,350,0,0,,,,,,,,,,,,7,0,281.889736,,https://www4.ti.ch/fileadmin/DSS/DSP/UMC/malattie_infettive/Coronavirus/dati/COVID19_Dati_TI_per_github.xlsx
2020-08-25 10:05:35,2020-08-24 14:00:00,CH,UR,Uri,04,46.771849,8.628586,85,132,132,0,0,363.64,19.284,115,0,7,,,,41.0,,,,,,,,,,3,0,74.499887,,https://www.ur.ch/themen/2962
2020-08-25 10:05:35,2020-08-19 01:00:00,CH,VD,Vaud,22,46.570091,6.557809000000001,,6448,6448,1,11,813.01,54.092,,0,429,5,,,,,,,,,,,,,26,0,155.634399,493.865339,https://www.vd.ch/toutes-les-actualites/hotline-et-informations-sur-le-coronavirus/point-de-situation-statistique-dans-le-canton-de-vaud/
2020-08-25 10:05:35,2020-08-24 01:00:00,CH,VS,Valais/Wallis,23,46.209567,7.604659,,2301,2301,0,9,673.79,45.095,315,0,154,1,1,,,,,,,,,,,,0,0,213.793756,,https://www.vs.ch/de/web/coronavirus
2020-08-25 10:05:35,2020-08-25 06:00:00,CH,ZG,Zug,09,47.157296,8.537294,,338,338,0,3,269.54,7.177,296,0,9,0,,,,,,,,,,,,,4,0,67.159213,,https://www.zg.ch/behoerden/gesundheitsdirektion/statistikfachstelle/themen/gesundheit/corona
2020-08-25 10:05:35,2020-08-24 12:30:00,CH,ZH,Zürich,01,47.41275,8.65508,,5579,5579,-3,22,370.87,9.307,,0,140,5,5,514.0,934.0,,,,,,,,,,31,0,68.562863,483.468088,https://www.zh.ch/de/gesundheit/coronavirus.html
