last_update,timestamp,country,abbreviation_canton,name_canton,number_canton,lat,long,tests_performed,total_currently_positive_cases,total_positive_cases,new_hosp,total_hospitalized,total_currently_positive_per_100k,deaths_per_100k,released,ncumul_ICU_intub,deaths,intensive_care,ncumul_vent,current_isolated,current_quarantined,current_quarantined_riskareatravel,current_quarantined_total,ncumul_ICF,TotalPosTests1,ninst_ICU_intub,ncumul_confirmed_non_resident,current_hosp_non_resident,diff_tested,current_hosp_resident,new_positive_cases,new_deaths,doubling_time_total_positive,doubling_time_fatalities,source
2020-08-18 20:14:59,2020-08-17 01:00:00,CH,AG,Aargau,01,47.40966,8.15688,,1825,1825,0,2,271.98,7.452,1170,0,50,1,1,124.0,473.0,1285.0,,,,,,,,,10,0,84.89874,,https://www.ag.ch/de/themen_1/coronavirus_2/coronavirus.jsp
2020-08-18 20:14:59,2020-08-18 06:00:00,CH,AI,Appenzell Innerrhoden,16,47.317264,9.416754,,25,25,0,1,155.28,0.0,,0,0,,,0.0,0.0,16.0,16.0,,,,,,,,0,0,,0.0,https://www.ai.ch/themen/gesundheit-alter-und-soziales/gesundheitsfoerderung-und-praevention/uebertragbare-krankheiten/coronavirus
2020-08-18 20:14:59,2020-08-18 13:10:00,CH,AR,Appenzell Ausserrhoden,15,47.416351999999996,9.36791,,122,122,-2,0,221.01,5.435,,0,3,0,,9.0,-75.0,107.0,32.0,,,,,,,,1,0,45.224977,,https://www.ar.ch/verwaltung/departement-gesundheit-und-soziales/amt-fuer-gesundheit/informationsseite-coronavirus/
2020-08-18 20:14:59,2020-08-18 06:00:00,CH,BE,Bern/Berne,02,46.823608,7.636667,,2322,2322,0,7,225.2,9.504,,0,98,1,1,,,,,,,,,,,,7,0,124.000291,,https://www.besondere-lage.sites.be.ch/besondere-lage_sites/de/index/corona/index.html
2020-08-18 20:14:59,2020-08-18 01:00:00,CH,BL,Basel-Landschaft,13,47.45176,7.702414,,979,979,1,2,341.11,12.195,905,0,35,1,0,40.0,177.0,295.0,472.0,,,,,,,,1,0,167.908943,,https://www.baselland.ch/politik-und-behorden/direktionen/volkswirtschafts-und-gesundheitsdirektion/amt-fur-gesundheit/medizinische-dienste/kantonsarztlicher-dienst/aktuelles/covid-19-faelle-kanton-basel-landschaft
2020-08-18 20:14:59,2020-08-18 06:00:00,CH,BS,Basel-Stadt,12,47.564869,7.615259,235,1149,1149,0,8,592.57,27.334,1031,0,53,0,,65.0,132.0,462.0,594.0,,,,526.0,2.0,,6.0,5,0,100.363071,,https://www.gesundheit.bs.ch
2020-08-18 20:14:59,2020-08-17 01:00:00,CH,FL,Fürstentum Lichtenstein,00,47.166667,9.509722,900,94,94,,,243.52,2.591,87,0,1,,,,,,,,,,,,,,3,0,63.407182,,https://www.regierung.li/media/attachments/425-corona-situationsbericht-0817.pdf
2020-08-18 20:14:59,2020-08-18 01:00:00,CH,FR,Fribourg,10,46.718391,7.074008,30,1434,1434,0,3,455.09,26.976,158,0,85,1,,,,,,,,,,,,,6,0,169.635897,,https://www.fr.ch/sites/default/files/2020-08/200818_statistiques_situation_COVID_site.xlsx
2020-08-18 20:14:59,2020-08-18 01:00:00,CH,GE,Genève,25,46.220528,6.132935,61245,6564,6564,-3,15,1325.53,59.976,961,0,297,0,1,,,,,1.0,,,,,,,0,0,186.270771,1027.589721,https://www.ge.ch/document/21502/telecharger
2020-08-18 20:14:59,2020-08-18 09:30:00,CH,GL,Glarus,08,46.931042000000005,9.065751,,153,153,0,0,379.65,32.258,,0,13,,,,,,,,,,,,,,2,0,86.631844,,https://www.gl.ch/public/upload/assets/30317/COVID-19_Fallzahlen_Kanton_Glarus.xlsx
2020-08-18 20:14:59,2020-08-18 01:00:00,CH,GR,Graubünden/Grigioni,01,46.656248,9.628198,,957,957,0,1,483.58,25.265,,0,50,0,0,14.0,58.0,,,,,,,,,,4,0,299.782817,,https://services1.arcgis.com/YAuo6vcW85VPu7OE/arcgis/rest/services/Fallzahlen_Total_Kanton/FeatureServer/0/query?where=1%3D1&objectIds=&time=&resultType=none&outFields=*&returnHiddenFields=false&returnIdsOnly=false&returnUniqueIdsOnly=false&returnCountOnly=false&returnDistinctValues=false&cacheHint=false&orderByFields=Eingangs_Datum&groupByFieldsForStatistics=&outStatistics=&having=&resultOffset=&resultRecordCount=&sqlFormat=standard&f=pjson
2020-08-18 20:14:59,2020-08-18 01:00:00,CH,JU,Jura,26,47.350744,7.156107,,262,262,0,0,357.44,9.55,,0,7,0,,,,,,,,,,,,,0,0,906.288834,,https://www.jura.ch/Htdocs/Files/v/35059.xlsx/Departements/CHA/SIC/Carrousel/Coronavirus/Cornavirus/Chiffres/donnees_18_08.xlsx?download=1
2020-08-18 20:14:59,2020-08-18 01:00:00,CH,LU,Luzern,03,47.067763,8.1102,,986,986,-2,8,242.56,5.166,,0,21,4,,54.0,222.0,,,,,,,,,,2,0,61.532636,,https://gesundheit.lu.ch/themen/Humanmedizin/Infektionskrankheiten/Coronavirus
2020-08-18 20:14:59,2020-08-17 01:00:00,CH,NE,Neuchâtel,24,46.995534,6.780126,,823,823,0,0,462.36,47.191,,0,84,0,0,,,,,,,,,,,,0,0,217.670276,,https://www.ne.ch/autorites/DFS/SCSP/medecin-cantonal/maladies-vaccinations/Documents/Covid-19-Statistiques/COVID19_PublicationInternet.xlsx
2020-08-18 20:14:59,2020-08-18 01:00:00,CH,NW,Nidwalden,07,46.926755,8.405302,,131,131,0,0,304.65,6.977,,0,3,0,,,,,,,,,,,,,0,0,,,http://www.nw.ch/coronastatistik
2020-08-18 20:14:59,2020-08-18 01:00:00,CH,OW,Obwalden,06,46.804527,8.144317000000001,6,97,97,0,0,257.98,0.0,1,0,0,,,,,,,,,,,,,,2,0,166.349306,0.0,https://www.ow.ch/dl.php/de/5f3bc77f391a9/OW-1103775-v1-Statistik_OW_Covid-19.XLSX
2020-08-18 20:14:59,2020-08-17 01:00:00,CH,SG,St. Gallen,17,47.1832,9.274744,,1154,1154,0,7,228.65,8.124,226,0,41,0,4,,,,,,,,,,,,9,1,59.780531,140.355173,https://www.sg.ch/tools/informationen-coronavirus.html
2020-08-18 20:14:59,2020-08-18 07:30:00,CH,SH,Schaffhausen,14,47.71357,8.59167,,158,158,4,10,194.1,8.6,,0,7,0,,,,,,,,,,,,,1,0,27.050469,,https://sh.ch/CMS/get/file/b9887224-90fb-45b5-9320-53da7d647e4e
2020-08-18 20:14:59,2020-08-17 23:00:00,CH,SO,Solothurn,11,47.304135,7.639388,,625,625,0,3,230.29,6.632,,0,18,,,,,,,,,,,,,,12,0,33.173819,,https://corona.so.ch/index.php?id=27979
2020-08-18 20:14:59,2020-08-18 07:00:00,CH,SZ,Schwyz,05,47.061787,8.756585,10,439,439,0,1,279.08,15.893,393,0,25,,,,,,,,,,,,,,0,0,188.444078,,https://www.sz.ch/public/upload/assets/48170/COVID-19_Fallzahlen_Kanton_Schwyz.xlsx
2020-08-18 20:14:59,2020-08-18 08:00:00,CH,TG,Thurgau,01,47.568715,9.091957,276,536,536,0,4,195.76,6.939,78,0,19,1,,,,,,,,,,,,,8,0,67.053481,,https://www.tg.ch/news/fachstab-gesundheit-coronavirus.html/10552
2020-08-18 20:14:59,2020-08-18 06:00:00,CH,TI,Ticino,21,46.295617,8.808924,,3476,3476,0,1,982.75,98.954,924,0,350,0,0,,,,,,,,,,,,6,0,667.537744,,https://www4.ti.ch/fileadmin/DSS/DSP/UMC/malattie_infettive/Coronavirus/dati/COVID19_Dati_TI_per_github.xlsx
2020-08-18 20:14:59,2020-08-18 14:00:00,CH,UR,Uri,04,46.771849,8.628586,85,127,127,0,0,349.86,19.284,113,0,7,,,,71.0,,,,,,,,,,1,0,53.2669,,https://www.ur.ch/themen/2962
2020-08-18 20:14:59,2020-08-17 01:00:00,CH,VD,Vaud,22,46.570091,6.557809000000001,,6369,6369,-2,7,803.05,54.092,,0,429,4,,,,,,,,,,,,,24,1,177.718996,369.964602,https://www.vd.ch/toutes-les-actualites/hotline-et-informations-sur-le-coronavirus/point-de-situation-statistique-dans-le-canton-de-vaud/
2020-08-18 20:14:59,2020-08-18 01:00:00,CH,VS,Valais/Wallis,23,46.209567,7.604659,,2244,2244,0,5,657.1,44.802,314,0,153,1,1,,,,,,,,,,,,0,0,336.399433,,https://www.vs.ch/de/web/coronavirus
2020-08-18 20:14:59,2020-08-18 06:00:00,CH,ZG,Zug,09,47.157296,8.537294,,317,317,0,1,252.79,7.177,277,0,9,0,,,,,,,,,,,,,2,0,135.589535,,https://www.zg.ch/behoerden/gesundheitsdirektion/statistikfachstelle/themen/gesundheit/corona
2020-08-18 20:14:59,2020-08-18 12:30:00,CH,ZH,Zürich,01,47.41275,8.65508,,5236,5236,0,33,348.07,9.24,,0,139,9,9,651.0,1142.0,,,,,,,,,,68,0,67.514113,,https://www.zh.ch/de/gesundheit/coronavirus.html
