last_update,timestamp,country,abbreviation_canton,name_canton,number_canton,lat,long,tests_performed,total_currently_positive_cases,total_positive_cases,new_hosp,total_hospitalized,total_currently_positive_per_100k,deaths_per_100k,released,ncumul_ICU_intub,deaths,intensive_care,ncumul_vent,current_isolated,current_quarantined,current_quarantined_riskareatravel,current_quarantined_total,ncumul_ICF,ncumul_confirmed_non_resident,current_hosp_non_resident,current_hosp_resident,TotalPosTests1,ninst_ICU_intub,new_positive_cases,new_deaths,doubling_time_total_positive,doubling_time_fatalities,source
2020-09-18 04:07:05,2020-09-16 01:00:00,CH,AG,Aargau,01,47.40966,8.15688,,2435,2435,0,2,362.89,7.899,1170,0,53,1,1,174.0,560.0,775.0,,,,,,,,36,0,77.123938,,https://www.ag.ch/de/themen_1/coronavirus_2/coronavirus.jsp
2020-09-18 04:07:05,2020-09-17 10:00:00,CH,AI,Appenzell Innerrhoden,16,47.317264,9.416754,,31,31,0,1,192.55,0.0,,0,0,,,5.0,15.0,10.0,25.0,,,,,,,3,0,16.111355,0.0,https://www.ai.ch/themen/gesundheit-alter-und-soziales/gesundheitsfoerderung-und-praevention/uebertragbare-krankheiten/coronavirus
2020-09-18 04:07:05,2020-09-17 15:35:00,CH,AR,Appenzell Ausserrhoden,15,47.416351999999996,9.36791,,157,157,1,2,284.42,5.435,,0,3,0,,10.0,67.0,47.0,114.0,,,,,,,6,0,20.89093,,https://www.ar.ch/verwaltung/departement-gesundheit-und-soziales/amt-fuer-gesundheit/informationsseite-coronavirus/
2020-09-18 04:07:05,2020-09-17 06:00:00,CH,BE,Bern/Berne,02,46.823608,7.636667,,2990,2990,0,12,289.98,9.601,,0,99,2,1,,,,,,,,,,,43,0,55.818925,,https://www.besondere-lage.sites.be.ch/besondere-lage_sites/de/index/corona/index.html
2020-09-18 04:07:05,2020-09-17 01:00:00,CH,BL,Basel-Landschaft,13,47.45176,7.702414,,1115,1115,0,3,388.5,12.544,1024,0,36,0,0,44.0,74.0,204.0,278.0,,,,,,,5,0,255.882922,,https://www.baselland.ch/politik-und-behorden/direktionen/volkswirtschafts-und-gesundheitsdirektion/amt-fur-gesundheit/medizinische-dienste/kantonsarztlicher-dienst/aktuelles/covid-19-faelle-kanton-basel-landschaft
2020-09-18 04:07:05,2020-09-17 07:00:00,CH,BS,Basel-Stadt,12,47.564869,7.615259,235,1282,1282,-1,3,661.17,27.849,1184,0,54,1,,44.0,101.0,260.0,361.0,,547.0,1.0,2.0,,,3,0,259.620537,,https://www.gesundheit.bs.ch
2020-09-18 04:07:05,2020-09-17 01:00:00,CH,FL,Fürstentum Lichtenstein,00,47.166667,9.509722,900,112,112,0,1,290.16,2.591,106,0,1,,,,,,,,,,,,,1,0,386.426963,,https://www.regierung.li/media/attachments/489-corona-situationsbericht-0917.pdf
2020-09-18 04:07:05,2020-09-17 01:00:00,CH,FR,Fribourg,10,46.718391,7.074008,30,2197,2197,1,15,697.24,30.784,166,0,97,1,,,,,,,,,,,,18,2,59.655369,35.591945,https://www.fr.ch/sites/default/files/2020-09/200917_statistiques_situation_COVID_site.xlsx
2020-09-18 04:07:05,2020-09-16 01:00:00,CH,GE,Genève,25,46.220528,6.132935,71961,7702,7702,0,29,1555.33,61.389,973,0,304,1,1,335.0,707.0,1027.0,,2.0,,,,,,67,0,102.121525,525.057083,https://www.ge.ch/document/21502/telecharger
2020-09-18 04:07:05,2020-09-17 09:15:00,CH,GL,Glarus,08,46.931042000000005,9.065751,,170,170,0,0,421.84,32.258,,0,13,,,,,,,,,,,,,1,0,194.653691,,https://www.gl.ch/public/upload/assets/30317/COVID-19_Fallzahlen_Kanton_Glarus.xlsx
2020-09-18 04:07:05,2020-09-17 01:00:00,CH,GR,Graubünden/Grigioni,01,46.656248,9.628198,,1056,1056,2,3,533.6,25.265,,0,50,0,0,29.0,93.0,,,,,,,,,1,0,521.096227,,https://services1.arcgis.com/YAuo6vcW85VPu7OE/arcgis/rest/services/Fallzahlen_Total_Kanton/FeatureServer/0/query?where=1%3D1&objectIds=&time=&resultType=none&outFields=*&returnHiddenFields=false&returnIdsOnly=false&returnUniqueIdsOnly=false&returnCountOnly=false&returnDistinctValues=false&cacheHint=false&orderByFields=Eingangs_Datum&groupByFieldsForStatistics=&outStatistics=&having=&resultOffset=&resultRecordCount=&sqlFormat=standard&f=pjson
2020-09-18 04:07:05,2020-09-17 01:00:00,CH,JU,Jura,26,47.350744,7.156107,,293,293,0,2,399.73,9.55,,0,7,0,,,,,,,,,,,,1,0,252.128317,,https://www.jura.ch/Htdocs/Files/v/35330.xlsx/Departements/CHA/SIC/Carrousel/Coronavirus/Cornavirus/Chiffres/donnees_17_09.xlsx?download=1
2020-09-18 04:07:05,2020-09-17 01:00:00,CH,LU,Luzern,03,47.067763,8.1102,,1154,1154,0,6,283.89,5.658,,0,23,0,,56.0,139.0,,,,,,,,,12,0,83.350001,38.096825,https://gesundheit.lu.ch/themen/Humanmedizin/Infektionskrankheiten/Coronavirus
2020-09-18 04:07:05,2020-09-16 01:00:00,CH,NE,Neuchâtel,24,46.995534,6.780126,,998,998,1,3,560.67,48.315,,0,86,1,0,,,,,,,,,,,0,0,148.6432,296.317042,https://www.ne.ch/autorites/DFS/SCSP/medecin-cantonal/maladies-vaccinations/Documents/Covid-19-Statistiques/COVID19_PublicationInternet.xlsx
2020-09-18 04:07:05,2020-09-17 01:00:00,CH,NW,Nidwalden,07,46.926755,8.405302,,140,140,0,1,325.58,6.977,,0,3,1,,,,,,,,,,,,1,0,483.468088,,http://www.nw.ch/coronastatistik
2020-09-18 04:07:05,2020-09-17 01:00:00,CH,OW,Obwalden,06,46.804527,8.144317000000001,6,110,110,0,0,292.55,0.0,1,0,0,,,,,,,,,,,,,1,0,188.877307,0.0,https://www.ow.ch/dl.php/de/5f636bf8a9377/OW-1103775-v1-Statistik_OW_Covid-19.XLSX
2020-09-18 04:07:05,2020-09-16 01:00:00,CH,SG,St. Gallen,17,47.1832,9.274744,,1461,1461,0,9,289.48,8.124,226,0,41,1,1,124.0,701.0,,,,,,,,,20,0,59.255544,,https://stada.sg.ch/covid/BAG_uebersicht.html
2020-09-18 04:07:05,2020-09-17 07:15:00,CH,SH,Schaffhausen,14,47.71357,8.59167,,181,181,0,0,222.36,9.828,,0,8,0,,8.0,49.0,50.0,,,,,,,,3,0,123.718681,,https://sh.ch/CMS/get/file/f48a7425-2dc2-4f9d-b80e-7592dc45c13f
2020-09-18 04:07:05,2020-09-16 23:00:00,CH,SO,Solothurn,11,47.304135,7.639388,,783,783,1,3,288.5,6.632,,0,18,,,,,,,,,,,,,7,0,59.924775,,https://corona.so.ch/index.php?id=27979
2020-09-18 04:07:05,2020-09-17 07:00:00,CH,SZ,Schwyz,05,47.061787,8.756585,10,544,544,0,1,345.84,15.893,490,0,25,,,,,,,,,,,,,3,0,109.161512,,https://www.sz.ch/public/upload/assets/48620/COVID-19_Fallzahlen_Kanton_Schwyz.xlsx
2020-09-18 04:07:05,2020-09-17 08:00:00,CH,TG,Thurgau,01,47.568715,9.091957,276,671,671,0,3,245.07,6.939,83,0,19,2,,61.0,,,,,,,,,,9,0,62.848673,,https://www.tg.ch/news/fachstab-gesundheit-coronavirus.html/10552
2020-09-18 04:07:05,2020-09-17 06:00:00,CH,TI,Ticino,21,46.295617,8.808924,,3604,3604,0,1,1018.94,98.954,929,0,350,0,0,,,,,,,,,,,8,0,376.764845,,https://www4.ti.ch/fileadmin/DSS/DSP/UMC/malattie_infettive/Coronavirus/dati/COVID19_Dati_TI_per_github.xlsx
2020-09-18 04:07:05,2020-09-16 14:00:00,CH,UR,Uri,04,46.771849,8.628586,85,139,139,0,0,382.92,19.284,130,0,7,,,,20.0,,,,,,,,,0,0,480.002337,,https://www.ur.ch/themen/2962
2020-09-18 04:07:05,2020-09-16 01:00:00,CH,VD,Vaud,22,46.570091,6.557809000000001,,9142,9142,6,39,1152.69,55.1,,0,437,3,,,,,,,,,,,,71,0,55.856045,1512.79306,https://www.vd.ch/toutes-les-actualites/hotline-et-informations-sur-le-coronavirus/point-de-situation-statistique-dans-le-canton-de-vaud/
2020-09-18 04:07:05,2020-09-17 01:00:00,CH,VS,Valais/Wallis,23,46.209567,7.604659,,2550,2550,-1,8,746.71,45.388,322,0,155,0,0,71.0,287.0,259.0,,,,,,,,0,0,168.215538,,https://www.vs.ch/de/web/coronavirus
2020-09-18 04:07:05,2020-09-17 06:00:00,CH,ZG,Zug,09,47.157296,8.537294,,410,410,-1,0,326.95,7.177,376,0,9,0,,,,,,,,,,,,1,0,77.195928,,https://www.zg.ch/behoerden/gesundheitsdirektion/statistikfachstelle/themen/gesundheit/corona
2020-09-18 04:07:05,2020-09-17 12:30:00,CH,ZH,Zürich,01,47.41275,8.65508,,7230,7230,2,27,480.62,9.639,,0,145,9,9,568.0,1003.0,,,,,,,,,87,0,91.753502,,https://www.zh.ch/de/gesundheit/coronavirus.html
