last_update,timestamp,country,abbreviation_canton,name_canton,number_canton,lat,long,tests_performed,total_currently_positive_cases,total_positive_cases,new_hosp,total_hospitalized,total_currently_positive_per_100k,deaths_per_100k,released,ncumul_ICU_intub,deaths,intensive_care,ncumul_vent,current_isolated,current_quarantined,current_quarantined_riskareatravel,current_quarantined_total,ncumul_ICF,ncumul_confirmed_non_resident,current_hosp_non_resident,current_hosp_resident,TotalPosTests1,ninst_ICU_intub,new_positive_cases,new_deaths,doubling_time_total_positive,doubling_time_fatalities,source
2020-09-14 10:06:41,2020-09-10 01:00:00,CH,AG,Aargau,01,47.40966,8.15688,,2308,2308,0,2,343.96,7.75,1170,0,52,1,1,180.0,514.0,632.0,,,,,,,,29,0,89.152706,,https://www.ag.ch/de/themen_1/coronavirus_2/coronavirus.jsp
2020-09-14 10:06:41,2020-09-10 10:00:00,CH,AI,Appenzell Innerrhoden,16,47.317264,9.416754,,26,26,0,1,161.49,0.0,,0,0,,,1.0,9.0,12.0,21.0,,,,,,,1,0,88.364938,0.0,https://www.ai.ch/themen/gesundheit-alter-und-soziales/gesundheitsfoerderung-und-praevention/uebertragbare-krankheiten/coronavirus
2020-09-14 10:06:41,2020-09-10 13:30:00,CH,AR,Appenzell Ausserrhoden,15,47.416351999999996,9.36791,,139,139,0,0,251.81,5.435,,0,3,0,,11.0,76.0,31.0,107.0,,,,,,,0,0,58.467175,,https://www.ar.ch/verwaltung/departement-gesundheit-und-soziales/amt-fuer-gesundheit/informationsseite-coronavirus/
2020-09-14 10:06:41,2020-09-13 06:00:00,CH,BE,Bern/Berne,02,46.823608,7.636667,,2852,2852,0,8,276.6,9.601,,0,99,2,1,,,,,,,,,,,42,0,62.43473,,https://www.besondere-lage.sites.be.ch/besondere-lage_sites/de/index/corona/index.html
2020-09-14 10:06:41,2020-09-11 01:00:00,CH,BL,Basel-Landschaft,13,47.45176,7.702414,,1094,1094,0,0,381.18,12.544,1003,0,36,0,0,41.0,116.0,184.0,300.0,,,,,,,8,0,138.686399,123.025489,https://www.baselland.ch/politik-und-behorden/direktionen/volkswirtschafts-und-gesundheitsdirektion/amt-fur-gesundheit/medizinische-dienste/kantonsarztlicher-dienst/aktuelles/covid-19-faelle-kanton-basel-landschaft
2020-09-14 10:06:41,2020-09-14 07:40:00,CH,BS,Basel-Stadt,12,47.564869,7.615259,235,1274,1274,0,2,657.04,27.849,1174,0,54,1,,46.0,115.0,249.0,364.0,,546.0,,,,,2,0,274.222703,,https://www.gesundheit.bs.ch
2020-09-14 10:06:41,2020-09-13 01:00:00,CH,FL,Fürstentum Lichtenstein,00,47.166667,9.509722,900,111,111,0,0,287.56,2.591,105,0,1,,,,,,,,,,,,,0,0,94.430704,,https://www.llv.li/files/ag/aktuelle-fallzahlen.pdf
2020-09-14 10:06:41,2020-09-14 01:00:00,CH,FR,Fribourg,10,46.718391,7.074008,30,2125,2125,1,22,674.39,27.928,164,0,88,2,,,,,,,,,,,,19,0,47.343917,,https://www.fr.ch/sites/default/files/2020-09/200914_statistiques_situation_COVID_site.xlsx
2020-09-14 10:06:41,2020-09-11 01:00:00,CH,GE,Genève,25,46.220528,6.132935,71961,7406,7406,-2,18,1495.56,60.582,973,0,300,1,1,,,,,4.0,,,,,,0,0,145.77314,,https://www.ge.ch/document/21502/telecharger
2020-09-14 10:06:41,2020-09-14 09:15:00,CH,GL,Glarus,08,46.931042000000005,9.065751,,168,168,0,0,416.87,32.258,,0,13,,,,,,,,,,,,,0,0,289.385489,,https://www.gl.ch/public/upload/assets/30317/COVID-19_Fallzahlen_Kanton_Glarus.xlsx
2020-09-14 10:06:41,2020-09-13 01:00:00,CH,GR,Graubünden/Grigioni,01,46.656248,9.628198,,1049,1049,0,1,530.07,25.265,,0,50,0,0,36.0,108.0,,,,,,,,,0,0,171.383052,,https://services1.arcgis.com/YAuo6vcW85VPu7OE/arcgis/rest/services/Fallzahlen_Total_Kanton/FeatureServer/0/query?where=1%3D1&objectIds=&time=&resultType=none&outFields=*&returnHiddenFields=false&returnIdsOnly=false&returnUniqueIdsOnly=false&returnCountOnly=false&returnDistinctValues=false&cacheHint=false&orderByFields=Eingangs_Datum&groupByFieldsForStatistics=&outStatistics=&having=&resultOffset=&resultRecordCount=&sqlFormat=standard&f=pjson
2020-09-14 10:06:41,2020-09-11 01:00:00,CH,JU,Jura,26,47.350744,7.156107,,288,288,-1,3,392.91,9.55,,0,7,0,,,,,,,,,,,,3,0,88.995152,,https://www.jura.ch/Htdocs/Files/v/35290.xlsx/Departements/CHA/SIC/Carrousel/Coronavirus/Cornavirus/Chiffres/Donnees---Situation-au-11-septembre-2020.xlsx?download=1
2020-09-14 10:06:41,2020-09-11 01:00:00,CH,LU,Luzern,03,47.067763,8.1102,,1115,1115,0,6,274.29,5.166,,0,21,1,,50.0,96.0,,,,,,,,,8,0,119.017958,,https://gesundheit.lu.ch/themen/Humanmedizin/Infektionskrankheiten/Coronavirus
2020-09-14 10:06:41,2020-09-13 01:00:00,CH,NE,Neuchâtel,24,46.995534,6.780126,,980,980,0,1,550.56,47.753,,0,85,0,0,,,,,,,,,,,0,0,69.011403,,https://www.ne.ch/autorites/DFS/SCSP/medecin-cantonal/maladies-vaccinations/Documents/Covid-19-Statistiques/COVID19_PublicationInternet.xlsx
2020-09-14 10:06:41,2020-09-10 01:00:00,CH,NW,Nidwalden,07,46.926755,8.405302,,138,138,0,1,320.93,6.977,,0,3,1,,,,,,,,,,,,0,0,,,http://www.nw.ch/coronastatistik
2020-09-14 10:06:41,2020-09-11 01:00:00,CH,OW,Obwalden,06,46.804527,8.144317000000001,6,108,108,0,0,287.23,0.0,1,0,0,,,,,,,,,,,,,0,0,372.563923,0.0,https://www.ow.ch/dl.php/de/5f5b8ac40a53c/OW-1103775-v1-Statistik_OW_Covid-19.XLSX
2020-09-14 10:06:41,2020-09-14 01:00:00,CH,SG,St. Gallen,17,47.1832,9.274744,,1409,1409,0,9,279.18,8.124,226,0,41,2,1,113.0,667.0,,,,,,,,,0,0,70.064933,,https://stada.sg.ch/covid/ContactTracing.html
2020-09-14 10:06:41,2020-09-14 07:15:00,CH,SH,Schaffhausen,14,47.71357,8.59167,,177,177,0,0,217.44,9.828,,0,8,0,,10.0,28.0,39.0,,,,,,,,0,0,66.411534,,https://sh.ch/CMS/get/file/3284dfd9-6370-4d5f-965c-47eaa2d3689c
2020-09-14 10:06:41,2020-09-13 23:00:00,CH,SO,Solothurn,11,47.304135,7.639388,,755,755,1,2,278.19,6.632,,0,18,,,,,,,,,,,,,11,0,107.284078,,https://corona.so.ch/index.php?id=27979
2020-09-14 10:06:41,2020-09-14 07:00:00,CH,SZ,Schwyz,05,47.061787,8.756585,10,535,535,0,1,340.11,15.893,481,0,25,,,,,,,,,,,,,8,0,78.870472,,https://www.sz.ch/public/upload/assets/48589/COVID-19_Fallzahlen_Kanton_Schwyz.xlsx
2020-09-14 10:06:41,2020-09-14 08:00:00,CH,TG,Thurgau,01,47.568715,9.091957,276,640,640,0,3,233.75,6.939,83,0,19,2,,55.0,,,,,,,,,,1,0,53.700268,,https://www.tg.ch/news/fachstab-gesundheit-coronavirus.html/10552
2020-09-14 10:06:41,2020-09-14 06:00:00,CH,TI,Ticino,21,46.295617,8.808924,,3590,3590,0,0,1014.98,98.954,929,0,350,0,0,,,,,,,,,,,13,0,427.298993,,https://www4.ti.ch/fileadmin/DSS/DSP/UMC/malattie_infettive/Coronavirus/dati/COVID19_Dati_TI_per_github.xlsx
2020-09-14 10:06:41,2020-09-11 14:00:00,CH,UR,Uri,04,46.771849,8.628586,85,138,138,0,0,380.17,19.284,128,0,7,,,,19.0,,,,,,,,,0,0,476.536586,,https://www.ur.ch/themen/2962
2020-09-14 10:06:41,2020-09-09 01:00:00,CH,VD,Vaud,22,46.570091,6.557809000000001,,8101,8101,1,19,1021.43,54.722,,0,434,3,,,,,,,,,,,,31,0,66.897468,,https://www.vd.ch/toutes-les-actualites/hotline-et-informations-sur-le-coronavirus/point-de-situation-statistique-dans-le-canton-de-vaud/
2020-09-14 10:06:41,2020-09-11 01:00:00,CH,VS,Valais/Wallis,23,46.209567,7.604659,,2474,2474,0,5,724.45,45.388,321,0,155,0,0,84.0,188.0,166.0,,,,,,,,0,0,250.446389,,https://www.vs.ch/de/web/coronavirus
2020-09-14 10:06:41,2020-09-11 06:00:00,CH,ZG,Zug,09,47.157296,8.537294,,392,392,0,0,312.6,7.177,338,0,9,0,,,,,,,,,,,,4,0,62.944968,,https://www.zg.ch/behoerden/gesundheitsdirektion/statistikfachstelle/themen/gesundheit/corona
2020-09-14 10:06:41,2020-09-13 12:30:00,CH,ZH,Zürich,01,47.41275,8.65508,,7009,7009,1,23,465.93,9.573,,0,144,8,8,569.0,1066.0,,,,,,,,,47,0,66.295012,497.331089,https://www.zh.ch/de/gesundheit/coronavirus.html
