last_update,timestamp,country,abbreviation_canton,name_canton,number_canton,lat,long,tests_performed,total_currently_positive_cases,total_positive_cases,new_hosp,total_hospitalized,total_currently_positive_per_100k,deaths_per_100k,released,ncumul_ICU_intub,deaths,intensive_care,ncumul_vent,ncumul_confirmed_non_resident,current_hosp_non_resident,TotalPosTests1,ninst_ICU_intub,ncumul_ICF,new_positive_cases,new_deaths,doubling_time_total_positive,doubling_time_fatalities,source
2020-05-12 16:03:55,2020-05-12 12:45:00,CH,AG,Aargau,01,47.40966,8.15688,,1167,1167,-5,9,173.92,6.259,1040,0,42,2,2,,,,,,4,4,182.103172,27.342716,https://www.ag.ch/media/kanton_aargau/themen_1/coronavirus_1/lagebulletins/200512_KFS_Coronavirus_Lagebulletin_52.pdf
2020-05-12 16:03:55,2020-05-11 15:00:00,CH,AI,Appenzell Innerrhoden,16,47.317264,9.416754,,25,25,0,1,155.28,0.0,,0,0,,,,,,,,0,0,,0.0,https://www.ai.ch/themen/gesundheit-alter-und-soziales/gesundheitsfoerderung-und-praevention/uebertragbare-krankheiten/coronavirus
2020-05-12 16:03:55,2020-05-12 10:00:00,CH,AR,Appenzell Ausserrhoden,15,47.416351999999996,9.36791,,98,98,-2,5,177.54,5.435,,0,3,2,,,,,,,0,0,337.906288,,https://www.ar.ch/verwaltung/departement-gesundheit-und-soziales/amt-fuer-gesundheit/informationsseite-coronavirus/
2020-05-12 16:03:55,2020-05-12 06:00:00,CH,BE,Bern/Berne,02,46.823608,7.636667,,1840,1840,-1,35,178.45,9.019,,0,93,6,5,,,,,,5,1,203.97042,105.695475,https://www.besondere-lage.sites.be.ch/besondere-lage_sites/de/index/corona/index.html
2020-05-12 16:03:55,2020-05-12 01:00:00,CH,BL,Basel-Landschaft,13,47.45176,7.702414,,837,837,0,3,291.64,11.847,789,0,34,1,1,,,,,,1,0,723.470986,116.093531,https://www.baselland.ch/politik-und-behorden/direktionen/volkswirtschafts-und-gesundheitsdirektion/amt-fur-gesundheit/medizinische-dienste/kantonsarztlicher-dienst/aktuelles/covid-19-faelle-kanton-basel-landschaft
2020-05-12 16:03:55,2020-05-12 07:50:00,CH,BS,Basel-Stadt,12,47.564869,7.615259,235,970,970,-4,15,500.26,25.786,892,0,50,3,,,,,,,0,0,670.618405,,https://www.gd.bs.ch//nm/2020-tagesbulletin-coronavirus-970-bestaetigte-faelle-im-kanton-basel-stadt-gd-2.html
2020-05-12 16:03:55,2020-05-11 01:00:00,CH,FL,Fürstentum Lichtenstein,00,47.166667,9.509722,900,82,82,,,212.44,2.591,1,0,1,,,,,,,,0,0,,,https://www.regierung.li/media/attachments/255-corona-keine-faelle-montag-0511.pdf?t=637248176052289699
2020-05-12 16:03:55,2020-05-12 01:00:00,CH,FR,Fribourg,10,46.718391,7.074008,30,1138,1138,0,26,361.16,26.341,138,0,83,6,,,,,,,9,0,169.73982,94.14186,https://www.fr.ch/sites/default/files/2020-05/statistiques_situation_FR_1205.xlsx
2020-05-12 16:03:55,2020-05-11 10:00:00,CH,GE,Genève,25,46.220528,6.132935,29916,4976,4976,-2,196,1004.85,53.918,709,0,267,7,6,,,,,12.0,0,0,782.1523,130.452529,https://www.ge.ch/document/20094/telecharger
2020-05-12 16:03:55,2020-05-12 11:30:00,CH,GL,Glarus,08,46.931042000000005,9.065751,,127,127,0,2,315.14,29.777,,0,12,,,,,,,,0,0,218.336777,,https://www.gl.ch/public/upload/assets/28180/COVID-19_Fallzahlen_Kanton_Glarus.xlsx
2020-05-12 16:03:55,2020-05-11 01:00:00,CH,GR,Graubünden/Grigioni,01,46.656248,9.628198,,820,820,1,12,414.35,23.244,,0,46,,,,,,,,0,1,1419.218147,157.684636,https://www.gr.ch/DE/institutionen/verwaltung/djsg/ga/coronavirus/_layouts/15/GenericDataFeed/feed.aspx?PageID=26&ID=g_1175d522_e609_4287_93af_d14c9efd5218&FORMAT=JSONRAW
2020-05-12 16:03:55,2020-05-12 01:00:00,CH,JU,Jura,26,47.350744,7.156107,,202,202,0,4,275.58,9.55,,0,7,3,,,,,,,0,0,698.344351,,https://www.jura.ch/Htdocs/Files/v/34413.xlsx/Departements/CHA/SIC/Carrousel/Coronavirus/Cornavirus/Chiffres/donnees_12_05.xlsx?download=1
2020-05-12 16:03:55,2020-05-12 01:00:00,CH,LU,Luzern,03,47.067763,8.1102,,715,715,3,32,175.89,4.674,,0,19,5,,,,,,,2,0,493.865339,,https://gesundheit.lu.ch/themen/Humanmedizin/Infektionskrankheiten/Coronavirus
2020-05-12 16:03:55,2020-05-12 01:00:00,CH,NE,Neuchâtel,24,46.995534,6.780126,,712,712,0,13,400.0,46.067,,0,82,1,1,,,,,,0,0,272.441676,,https://www.ne.ch/autorites/DFS/SCSP/medecin-cantonal/maladies-vaccinations/Documents/Covid-19-Statistiques/COVID19_PublicationInternet.xlsx
2020-05-12 16:03:55,2020-05-12 01:00:00,CH,NW,Nidwalden,07,46.926755,8.405302,,118,118,0,0,274.42,6.977,,0,3,0,,,,,,,1,0,134.57864,,http://www.nw.ch/coronastatistik
2020-05-12 16:03:55,2020-05-12 13:00:00,CH,OW,Obwalden,06,46.804527,8.144317000000001,6,79,79,0,0,210.11,0.0,1,0,0,,,,,,,,0,0,,0.0,https://www.ow.ch/de/verwaltung/dienstleistungen/?dienst_id=5962
2020-05-12 16:03:55,2020-05-12 01:00:00,CH,SG,St. Gallen,17,47.1832,9.274744,,802,802,0,22,158.91,7.133,210,0,36,1,,,,,,,1,0,307.09945,39.830836,https://www.sg.ch/tools/informationen-coronavirus.html
2020-05-12 16:03:55,2020-05-12 07:30:00,CH,SH,Schaffhausen,14,47.71357,8.59167,,78,78,4,8,95.82,7.371,,0,6,3,,,,,,,0,0,133.42333,,https://sh.ch/CMS/get/file/bd99cbde-acd1-4a61-8dc0-06c27ef786cd
2020-05-12 16:03:55,2020-05-12 01:00:00,CH,SO,Solothurn,11,47.304135,7.639388,,421,421,5,12,155.12,5.527,,0,15,,,,,,,,1,0,75.047206,,https://corona.so.ch/index.php?id=27979
2020-05-12 16:03:55,2020-05-12 08:00:00,CH,SZ,Schwyz,05,47.061787,8.756585,10,306,306,0,1,194.53,14.622,277,0,23,,,,,,,,0,0,1058.781373,,https://www.sz.ch/public/upload/assets/46610/COVID-19_Fallzahlen_Kanton_Schwyz.xlsx
2020-05-12 16:03:55,2020-05-12 01:00:00,CH,TG,Thurgau,01,47.568715,9.091957,276,376,376,1,12,137.33,6.209,,0,17,5,,,,,,,0,0,649.823941,,https://www.tg.ch/news/fachdossier-coronavirus.html/10552
2020-05-12 16:03:55,2020-05-12 06:00:00,CH,TI,Ticino,21,46.295617,8.808924,,3268,3268,-1,79,923.95,96.127,849,0,340,9,7,,,,,,0,0,753.334132,145.554031,https://www4.ti.ch/fileadmin/DSS/DSP/UMC/malattie_infettive/Coronavirus/dati/COVID19_Dati_TI_per_github.xlsx
2020-05-12 16:03:55,2020-05-11 12:00:00,CH,UR,Uri,04,46.771849,8.628586,85,92,92,-2,1,253.44,19.284,75,0,7,,,,,,,,0,0,317.111679,,https://www.ur.ch/themen/2962
2020-05-12 16:03:55,2020-05-11 01:00:00,CH,VD,Vaud,22,46.570091,6.557809000000001,,5378,5378,1,71,678.1,50.309,,0,399,15,,,,,,,2,0,743.814894,459.207827,https://www.vd.ch/toutes-les-actualites/hotline-et-informations-sur-le-coronavirus/point-de-situation-statistique-dans-le-canton-de-vaud/
2020-05-12 16:03:55,2020-05-12 01:00:00,CH,VS,Valais/Wallis,23,46.209567,7.604659,,1912,1912,0,41,559.88,43.631,,0,149,9,6,,,,,,0,0,1102.680732,170.392808,https://www.vs.ch/de/web/coronavirus
2020-05-12 16:03:55,2020-05-12 06:00:00,CH,ZG,Zug,09,47.157296,8.537294,,194,194,0,1,154.7,6.38,159,0,8,1,,,,,,,1,0,334.440522,,https://www.zg.ch/behoerden/gesundheitsdirektion/statistikfachstelle/themen/gesundheit/corona
2020-05-12 16:03:55,2020-05-12 12:30:00,CH,ZH,Zürich,01,47.41275,8.65508,,3560,3560,0,44,236.65,8.376,,0,126,7,7,,,,,,2,0,491.785889,434.947555,https://gd.zh.ch/internet/gesundheitsdirektion/de/themen/coronavirus.html
