last_update,timestamp,country,abbreviation_canton,name_canton,number_canton,lat,long,tests_performed,total_currently_positive_cases,total_positive_cases,new_hosp,total_hospitalized,total_currently_positive_per_100k,deaths_per_100k,released,ncumul_ICU_intub,deaths,intensive_care,ncumul_vent,current_isolated,current_quarantined,current_quarantined_riskareatravel,current_quarantined_total,ncumul_ICF,TotalPosTests1,ninst_ICU_intub,ncumul_confirmed_non_resident,current_hosp_non_resident,ndiff_tests_total,current_hosp_resident,ndiff_tests_positive,ndiff_tests_negative,tests_positivity_rate,new_positive_cases,new_deaths,doubling_time_total_positive,doubling_time_fatalities,source
2020-08-30 00:14:42,2020-08-27 01:00:00,CH,AG,Aargau,01,47.40966,8.15688,,2046,2046,0,2,304.92,7.75,1170,0,52,1,1,151.0,473.0,898.0,,,,,,,,,,,,27,0,60.451414,178.479791,https://www.ag.ch/de/themen_1/coronavirus_2/coronavirus.jsp
2020-08-30 00:14:42,2020-08-28 10:00:00,CH,AI,Appenzell Innerrhoden,16,47.317264,9.416754,,25,25,0,1,155.28,0.0,,0,0,,,0.0,2.0,12.0,14.0,,,,,,,,,,,0,0,,0.0,https://www.ai.ch/themen/gesundheit-alter-und-soziales/gesundheitsfoerderung-und-praevention/uebertragbare-krankheiten/coronavirus
2020-08-30 00:14:42,2020-08-28 12:35:00,CH,AR,Appenzell Ausserrhoden,15,47.416351999999996,9.36791,,132,132,0,1,239.13,5.435,,0,3,0,,13.0,80.0,25.0,105.0,,,,,,,,,,,1,0,43.992096,,https://www.ar.ch/verwaltung/departement-gesundheit-und-soziales/amt-fuer-gesundheit/informationsseite-coronavirus/
2020-08-30 00:14:42,2020-08-29 06:00:00,CH,BE,Bern/Berne,02,46.823608,7.636667,,2506,2506,0,4,243.04,9.601,,0,99,1,1,,,,,,,,,,,,,,,19,0,87.793197,,https://www.besondere-lage.sites.be.ch/besondere-lage_sites/de/index/corona/index.html
2020-08-30 00:14:42,2020-08-28 01:00:00,CH,BL,Basel-Landschaft,13,47.45176,7.702414,,1029,1029,0,3,358.54,12.195,938,0,35,1,1,41.0,132.0,211.0,343.0,,,,,,,,,,,5,0,168.082236,,https://www.baselland.ch/politik-und-behorden/direktionen/volkswirtschafts-und-gesundheitsdirektion/amt-fur-gesundheit/medizinische-dienste/kantonsarztlicher-dienst/aktuelles/covid-19-faelle-kanton-basel-landschaft
2020-08-30 00:14:42,2020-08-29 07:30:00,CH,BS,Basel-Stadt,12,47.564869,7.615259,235,1210,1210,0,6,624.03,27.849,1106,0,54,0,,50.0,68.0,316.0,384.0,,,,533.0,,,,,,,5,1,166.00272,185.411472,https://www.gesundheit.bs.ch
2020-08-30 00:14:42,2020-08-29 01:00:00,CH,FL,Fürstentum Lichtenstein,00,47.166667,9.509722,900,107,107,0,1,277.2,2.591,96,0,1,,,,,,,,,,,,,,,,,1,0,51.223842,,https://www.regierung.li/media/attachments/454-corona-situationsbericht-0829.pdf
2020-08-30 00:14:42,2020-08-28 01:00:00,CH,FR,Fribourg,10,46.718391,7.074008,30,1634,1634,1,3,518.57,26.976,160,0,85,0,,,,,,,,,,,,,,,,21,0,65.668705,,https://www.fr.ch/sites/default/files/2020-08/200828_statistiques_situation_COVID_site.xlsx
2020-08-30 00:14:42,2020-08-28 01:00:00,CH,GE,Genève,25,46.220528,6.132935,66873,6829,6829,-1,18,1379.04,59.976,973,0,297,0,1,,,,,0.0,,,,,,,,,,0,0,157.103113,,https://www.ge.ch/document/21502/telecharger
2020-08-30 00:14:42,2020-08-28 10:00:00,CH,GL,Glarus,08,46.931042000000005,9.065751,,163,163,0,0,404.47,32.258,,0,13,,,,,,,,,,,,,,,,,0,0,92.408793,,https://www.gl.ch/public/upload/assets/30317/COVID-19_Fallzahlen_Kanton_Glarus.xlsx
2020-08-30 00:14:42,2020-08-29 01:00:00,CH,GR,Graubünden/Grigioni,01,46.656248,9.628198,,1000,1000,0,0,505.31,25.265,,0,50,0,0,27.0,97.0,,,,,,,,,,,,,0,0,190.80277,,https://services1.arcgis.com/YAuo6vcW85VPu7OE/arcgis/rest/services/Fallzahlen_Total_Kanton/FeatureServer/0/query?where=1%3D1&objectIds=&time=&resultType=none&outFields=*&returnHiddenFields=false&returnIdsOnly=false&returnUniqueIdsOnly=false&returnCountOnly=false&returnDistinctValues=false&cacheHint=false&orderByFields=Eingangs_Datum&groupByFieldsForStatistics=&outStatistics=&having=&resultOffset=&resultRecordCount=&sqlFormat=standard&f=pjson
2020-08-30 00:14:42,2020-08-28 01:00:00,CH,JU,Jura,26,47.350744,7.156107,,266,266,0,1,362.89,9.55,,0,7,0,,,,,,,,,,,,,,,,0,0,920.151794,,https://www.jura.ch/Htdocs/Files/v/35179.xlsx/Departements/CHA/SIC/Carrousel/Coronavirus/Cornavirus/Chiffres/donnees_internet_28_08.xlsx?download=1
2020-08-30 00:14:42,2020-08-28 01:00:00,CH,LU,Luzern,03,47.067763,8.1102,,1045,1045,0,10,257.07,5.166,,0,21,3,,50.0,137.0,,,,,,,,,,,,,11,0,86.589573,,https://gesundheit.lu.ch/themen/Humanmedizin/Infektionskrankheiten/Coronavirus
2020-08-30 00:14:42,2020-08-27 01:00:00,CH,NE,Neuchâtel,24,46.995534,6.780126,,855,855,0,0,480.34,47.191,,0,84,0,0,,,,,,,,,,,,,,,1,0,267.645592,,https://www.ne.ch/autorites/DFS/SCSP/medecin-cantonal/maladies-vaccinations/Documents/Covid-19-Statistiques/COVID19_PublicationInternet.xlsx
2020-08-30 00:14:42,2020-08-28 01:00:00,CH,NW,Nidwalden,07,46.926755,8.405302,,133,133,0,0,309.3,6.977,,0,3,0,,,,,,,,,,,,,,,,0,0,228.734194,,http://www.nw.ch/coronastatistik
2020-08-30 00:14:42,2020-08-28 01:00:00,CH,OW,Obwalden,06,46.804527,8.144317000000001,6,106,106,0,3,281.91,0.0,1,0,0,,,,,,,,,,,,,,,,,1,0,71.726779,0.0,https://www.ow.ch/dl.php/de/5f4916dfa4e5a/OW-1103775-v1-Statistik_OW_Covid-19.XLSX
2020-08-30 00:14:42,2020-08-28 10:00:00,CH,SG,St. Gallen,17,47.1832,9.274744,,1249,1249,0,4,247.47,8.322,226,0,42,3,2,67.0,347.0,,,,,,,,,,,,,0,0,133.531641,143.82108,https://www.sg.ch/tools/informationen-coronavirus.html
2020-08-30 00:14:42,2020-08-28 07:30:00,CH,SH,Schaffhausen,14,47.71357,8.59167,,162,162,0,1,199.02,9.828,,0,8,0,,4.0,16.0,48.0,,,,,,,,,,,,0,0,278.988152,,https://sh.ch/CMS/get/file/f1917bc5-ecb5-4bfc-8a9c-9b8a97b36002
2020-08-30 00:14:42,2020-08-27 23:00:00,CH,SO,Solothurn,11,47.304135,7.639388,,687,687,0,3,253.13,6.632,,0,18,,,,,,,,,,,,,,,,,21,0,52.360757,,https://corona.so.ch/index.php?id=27979
2020-08-30 00:14:42,2020-08-28 07:00:00,CH,SZ,Schwyz,05,47.061787,8.756585,10,484,484,0,1,307.69,15.893,423,0,25,,,,,,,,,,,,,,,,,0,0,68.144785,,https://www.sz.ch/public/upload/assets/48320/COVID-19_Fallzahlen_Kanton_Schwyz.xlsx
2020-08-30 00:14:42,2020-08-28 08:00:00,CH,TG,Thurgau,01,47.568715,9.091957,276,572,572,0,3,208.91,6.939,79,0,19,1,,23.0,,,,,,,,,,,,,,3,0,139.860042,,https://www.tg.ch/news/fachstab-gesundheit-coronavirus.html/10552
2020-08-30 00:14:42,2020-08-28 06:00:00,CH,TI,Ticino,21,46.295617,8.808924,,3533,3533,0,1,998.87,98.954,926,0,350,0,0,,,,,,,,,,,,,,,2,0,369.308208,,https://www4.ti.ch/fileadmin/DSS/DSP/UMC/malattie_infettive/Coronavirus/dati/COVID19_Dati_TI_per_github.xlsx
2020-08-30 00:14:42,2020-08-28 14:00:00,CH,UR,Uri,04,46.771849,8.628586,85,137,137,0,0,377.41,19.284,126,0,7,,,,19.0,,,,,,,,,,,,,1,0,57.600483,,https://www.ur.ch/themen/2962
2020-08-30 00:14:42,2020-08-26 01:00:00,CH,VD,Vaud,22,46.570091,6.557809000000001,,6853,6853,-3,19,864.08,54.092,,0,429,7,,,,,,,,,,,,,,,,34,0,97.218037,,https://www.vd.ch/toutes-les-actualites/hotline-et-informations-sur-le-coronavirus/point-de-situation-statistique-dans-le-canton-de-vaud/
2020-08-30 00:14:42,2020-08-27 01:00:00,CH,VS,Valais/Wallis,23,46.209567,7.604659,,2340,2340,0,4,685.21,45.095,320,0,154,1,1,,,,,,,,,,,,,,,0,0,206.206432,,https://www.vs.ch/de/web/coronavirus
2020-08-30 00:14:42,2020-08-28 06:00:00,CH,ZG,Zug,09,47.157296,8.537294,,344,344,0,3,274.32,7.177,301,0,9,0,,,,,,,,,,,,,,,,3,0,55.020996,,https://www.zg.ch/behoerden/gesundheitsdirektion/statistikfachstelle/themen/gesundheit/corona
2020-08-30 00:14:42,2020-08-29 12:30:00,CH,ZH,Zürich,01,47.41275,8.65508,,5995,5995,0,19,398.52,9.373,,0,141,5,5,561.0,1062.0,,,,,,,,,,,,,63,0,48.191284,,https://www.zh.ch/de/gesundheit/coronavirus.html
